stop_id,stop_code,stop_name,stop_lat,stop_lon,wheelchair_boarding
1221,1221,14 Juillet,49.876621,2.282502,0
2,2,14 Juillet,49.876389,2.282197,0
5,5,3ème D.I.,49.880871,2.312705,0
6,6,3ème D.I.,49.881084,2.314066,0
3,3,8 Mai 1945,49.895931,2.334643,0
4,4,8 Mai 1945,49.896164,2.334115,0
7,7,Espace Alliance,49.905968,2.270988,0
8,8,Espace Alliance,49.905788,2.271614,0
9,9,Abbé de l'Epée,49.899323,2.318964,0
10,10,Abbé de l'Epée,49.899368,2.318798,0
11,11,Abbé Hénocque,49.910206,2.29534,0
12,12,Abbé Hénocque,49.910423,2.296216,0
17,17,Alain Colas,49.914696,2.337799,0
18,18,Alain Colas,49.914669,2.337812,0
19,19,Amiral Courbet,49.844795,2.384409,0
20,20,Amiral Courbet,49.844753,2.383715,0
732,732,ADAPEI,49.934357,2.273705,0
21,21,AFPA,49.930351,2.272917,0
22,22,AFPA,49.930271,2.273084,0
23,23,Anatole France,49.86945,2.241502,0
24,24,Anatole France,49.869064,2.241364,0
25,25,André Georges,49.882603,2.25144,0
26,26,André Georges,49.882305,2.252219,0
936,936,Aiguillon,49.87619,2.395914,0
27,27,Bout de Ville,49.939865,2.361628,0
28,28,Bout de Ville,49.939651,2.361517,0
29,29,Les Alençons,49.918022,2.358461,0
734,734,Les Alliés,49.868652,2.358607,0
31,31,Les Alliés,49.868256,2.358065,0
32,32,Allonville,49.941803,2.363841,0
33,33,ZAC Allonville,49.934551,2.362738,0
34,34,ZAC Allonville,49.934486,2.362738,0
15,15,Alsace Lorraine,49.894066,2.308737,0
16,16,Alsace Lorraine,49.894283,2.309223,0
35,35,André Malraux,49.868622,2.252131,0
36,36,André Malraux,49.86858,2.2517,0
962,962,Amazon,49.854641,2.398,0
30,30,Amazon,49.85445,2.398361,0
1200,1200,Ambonne,49.925072,2.257112,0
980,980,Ambonne,49.925117,2.256527,0
982,982,Ambroise Paré,49.879471,2.267549,0
983,983,Ambroise Paré,49.879559,2.267938,0
740,740,APAVE,49.941204,2.269732,0
741,741,APAVE,49.941116,2.26937,0
46,46,Aquapôle,49.871124,2.301957,0
47,47,Aquapôle,49.871063,2.302207,0
48,48,Aquapôle,49.871761,2.300942,0
984,984,Aquapôle,49.871861,2.301095,0
39,39,Artois,49.911636,2.246372,0
40,40,Artois,49.911724,2.247359,0
657,657,Legrand d'Aussy,49.891781,2.312602,0
658,658,Legrand d'Aussy,49.89143,2.314117,0
42,42,A.Vasseur,49.848911,2.38015,0
43,43,A.Vasseur,49.849026,2.379956,0
985,985,Balzac,49.910301,2.31636,0
986,986,Balzac,49.910465,2.316235,0
53,53,Place la Barre,49.910458,2.257399,0
987,987,Place la Barre,49.910187,2.257956,0
1222,1222,Basse Selle,49.855114,2.234557,0
51,51,Baudrez,49.899117,2.323635,0
52,52,Baudrez,49.899143,2.323537,0
54,54,Dorgelès,49.84943,2.400827,0
55,55,Dorgelès,49.849251,2.400521,0
56,56,Beauquesne,49.949429,2.313826,0
57,57,Beauquesne,49.949902,2.31416,0
58,58,Beaumarchais,49.909191,2.325801,0
59,59,Beaumarchais,49.909908,2.32555,0
988,988,Beffroi,49.895519,2.296241,0
61,61,Bel Air,49.867908,2.335034,0
62,62,Bel Air,49.867996,2.335006,0
65,65,Château d'Eau,49.968037,2.302362,0
66,66,Château d'Eau,49.968071,2.302321,0
2043,2043,Berlioz,49.910046,2.302472,0
2044,2044,Berlioz,49.910183,2.302694,0
69,69,Bertangles,49.969101,2.294679,0
70,70,Bertricourt,49.919479,2.269343,0
71,71,Bertricourt,49.919262,2.269928,0
72,72,Gendar. Boves,49.84816,2.393008,0
73,73,Gendar. Boves,49.847637,2.393409,0
74,74,B. Tronville,49.880341,2.422791,0
75,75,B. Tronville,49.880413,2.422763,0
76,76,Tronville,49.878956,2.409923,0
77,77,Tronville,49.878265,2.409227,0
78,78,Blanche Tâche,49.900291,2.340926,0
79,79,Blanche Tâche,49.900337,2.340898,0
981,981,La Blanche Tâche Z.A,49.898148,2.355979,0
82,82,Boidin,49.903282,2.221226,0
83,83,Boidin,49.903576,2.221198,0
85,85,Boulevard,49.900028,2.216605,0
86,86,Boulevard,49.899902,2.218121,0
87,87,Bragelonne,49.874035,2.306623,0
88,88,Bragelonne,49.873955,2.306595,0
89,89,N. Fontaine D,49.889286,2.290118,0
90,90,N. Fontaine C,49.889744,2.290562,0
63,63,N. Fontaine B,49.890732,2.290144,0
64,64,N. Fontaine A,49.890408,2.290339,0
707,707,La Bretesque,49.897503,2.297185,0
91,91,Cagnard,49.903885,2.287825,0
92,92,Cagnard,49.903965,2.288005,0
93,93,Epinette,49.857422,2.349242,0
94,94,Epinette,49.857769,2.348547,0
95,95,Esterel,49.869961,2.307375,0
96,96,Esterel,49.870266,2.307361,0
97,97,Cagny Z.I.,49.856487,2.352269,0
98,98,Cagny Z.I.,49.856647,2.351436,0
2045,2045,Calmette,49.913624,2.313843,0
2046,2046,Calmette,49.913605,2.313565,0
67,67,Cambrésis,49.91259,2.310437,0
68,68,Cambrésis,49.912582,2.310298,0
100,100,Camping,49.920792,2.259913,0
101,101,Camping,49.920704,2.259789,0
102,102,Campus Quai C,49.873775,2.264625,0
104,104,Campus Quai B,49.874485,2.264652,0
105,105,Campus Quai A,49.874504,2.264666,0
109,109,Carmel,49.866001,2.308392,0
110,110,Carmel,49.865704,2.308517,0
992,992,Caserne Dejean,49.888718,2.311589,0
993,993,Caserne Dejean,49.888798,2.311422,0
114,114,Cateuse,49.882858,2.246493,0
115,115,Cateuse,49.882912,2.24634,0
117,117,Clos de l'Avre,49.889294,2.325694,0
118,118,Clos de l'Avre,49.889275,2.325889,0
994,994,C. Cial Glisy,49.865036,2.378816,0
995,995,C. Cial Glisy,49.865017,2.3789,0
122,122,C. Cial Nord A,49.922646,2.302616,0
935,935,C. Cial Nord B,49.922474,2.302908,0
996,996,C. Cial Nord D,49.919933,2.304162,0
997,997,C. Cial Nord C,49.9202,2.303438,0
998,998,C. Cial Sud,49.861771,2.276046,0
126,126,C. Cial Sud,49.862309,2.276392,0
127,127,Eglise de Camon,49.887337,2.3464,0
129,129,Robert Le Coq,49.899925,2.268341,0
130,130,Robert Le Coq,49.900005,2.268271,0
133,133,Collège E.Lucas,49.898678,2.269538,0
999,999,Collège R.Parks,49.917187,2.25159,0
1000,1000,Collège R.Parks,49.917114,2.251368,0
137,137,Iream,49.870655,2.33288,0
138,138,Iream,49.870689,2.332616,0
139,139,Ch. Agriculture,49.871002,2.305013,0
140,140,Ch. Agriculture,49.870956,2.304791,0
141,141,Champ à Oisons,49.901222,2.219396,0
2051,2051,Chapitre,49.892494,2.259178,0
2052,2052,Chapitre,49.893379,2.258357,0
1001,1001,Cité-Providence,49.878441,2.296644,0
1002,1002,Cité-Providence,49.87854,2.296658,0
80,80,Cité-Providence,49.879456,2.295588,0
81,81,Cité-Providence,49.879204,2.297838,0
1003,1003,Chardin,49.911655,2.300024,0
1004,1004,Chardin,49.911655,2.299927,0
148,148,Château,49.878815,2.24279,0
149,149,Château,49.879696,2.242539,0
150,150,La Chaussée,49.815884,2.320063,0
152,152,Chev. Labarre,49.885693,2.347456,0
1006,1006,Zoo d'Amiens,49.900623,2.282226,0
1007,1007,Zoo d'Amiens,49.900837,2.281864,0
155,155,Chau. de Paris,49.842197,2.312126,0
158,158,Ch.  la Vallée,49.837513,2.309255,0
159,159,Ch.  la Vallée,49.837574,2.309699,0
41,41,Ctd François 1e,49.904308,2.300877,0
1008,1008,Ctd François 1e,49.904434,2.300988,0
160,160,Rollin,49.876598,2.313082,0
161,161,Rollin,49.87674,2.31304,0
1009,1009,Ctd Montrescu B,49.901031,2.29892,0
1157,1157,Ctd Montrescu C,49.901554,2.300004,0
1010,1010,Ctd Montrescu A,49.900566,2.298503,0
106,106,Charassain,49.875473,2.300662,0
107,107,Charassain,49.87558,2.300662,0
1011,1011,Cir. J.Verne D,49.888023,2.296942,0
1124,1124,Cir. J. Verne C,49.887959,2.29722,0
1012,1012,Cir. J. Verne B,49.888649,2.29779,0
1121,1121,Cir. J. Verne A,49.888874,2.296219,0
172,172,Krüger,49.902981,2.294901,0
174,174,Cim. Saint-Jean,49.886959,2.2679,0
175,175,Cim. Saint-Jean,49.887238,2.268469,0
176,176,Col. JM Laurent,49.87093,2.311792,0
177,177,Col. JM Laurent,49.870869,2.312306,0
178,178,Collège J.Curie,49.873283,2.356706,0
179,179,Collège J.Curie,49.873043,2.356928,0
180,180,Collège J.Verne,49.905239,2.326552,0
181,181,Collège J.Verne,49.905293,2.325857,0
921,921,Clarins,49.864918,2.386622,0
922,922,Clarins,49.864998,2.3854,0
1014,1014,Clémenceau,49.907883,2.301931,0
1015,1015,Clémenceau,49.907192,2.301821,0
186,186,Clos Saint-Jean,49.885132,2.25919,0
187,187,Clos Saint-Jean,49.885067,2.259162,0
188,188,Cim. Madeleine,49.912498,2.282394,0
189,189,Cim. Madeleine,49.912922,2.281921,0
1016,1016,Coll. St-Martin,49.88409,2.294778,0
1017,1017,Coll. St-Martin,49.884205,2.29493,0
1018,1018,Capitaine Nemo,49.863834,2.379218,0
1019,1019,Capitaine Nemo,49.863922,2.379135,0
196,196,Coisy,49.94746,2.316387,0
197,197,Coisy,49.94696,2.315831,0
776,776,COLAS,49.94313,2.278827,0
777,777,COLAS,49.942863,2.279008,0
1125,1125,Colbert,49.894352,2.278272,0
1126,1126,Colbert,49.894444,2.278022,0
1020,1020,Colvert,49.911636,2.308672,0
1021,1021,Colvert,49.911682,2.308074,0
895,895,Condorcet,49.876007,2.324863,0
896,896,Condorcet,49.875942,2.324461,0
202,202,Conty,49.856827,2.240123,0
203,203,Conty,49.856232,2.239597,0
204,204,Corbie,49.848057,2.398159,0
205,205,Corbie,49.848282,2.398618,0
1022,1022,Les coursives,49.91394,2.254835,0
1023,1023,Les Coursives,49.914021,2.254988,0
1205,1205,Cozette,49.886288,2.293261,0
208,208,Cim. de Rivery,49.90163,2.329264,0
209,209,Cim. de Rivery,49.901676,2.328513,0
1024,1024,Croix de Fer,49.86792,2.370081,0
1025,1025,Croix de Fer,49.868004,2.370526,0
2091,2091,Croix de Pierre,49.939129,2.26602,0
2092,2092,Croix de Pierre,49.939049,2.265714,0
213,213,C. de la Salle,49.885357,2.30367,0
214,214,C. de la Salle,49.886253,2.303614,0
215,215,Cité Castors,49.873493,2.325309,0
216,216,Cité Castors,49.873276,2.324767,0
217,217,Cité du Château,49.874981,2.348593,0
1185,1185,Cité du Château,49.875565,2.347857,0
219,219,Charles Tellier,49.90242,2.284712,0
220,220,Charles Tellier,49.90242,2.28481,0
221,221,Cité Petit,49.879913,2.275662,0
222,222,Cité Petit,49.879833,2.275635,0
223,223,Centre de Tri,49.890388,2.32158,0
224,224,Centre de Tri,49.890244,2.322331,0
1027,1027,C. Saint-Victor,49.906334,2.3181,0
1028,1028,C. Saint-Victor,49.90591,2.317433,0
229,229,Croix Rompue,49.870831,2.308208,0
230,230,Croix Rompue,49.870842,2.3095,0
923,923,Debouverie,49.8792,2.283514,0
44,44,Debouverie,49.879326,2.283388,0
231,231,D. Casanova,49.89019,2.347874,0
232,232,D. Casanova,49.890388,2.348082,0
233,233,D. Cordonnier,49.902939,2.318115,0
234,234,D. Cordonnier,49.90284,2.31888,0
237,237,Debussy,49.948765,2.317346,0
238,238,Debussy,49.949032,2.317152,0
239,239,Dejean,49.891205,2.315979,0
240,240,Dejean,49.891079,2.317355,0
1029,1029,Delpech Quai A,49.880737,2.292752,0
1030,1030,Delpech Quai B,49.880836,2.292807,0
245,245,Desmoulins,49.881962,2.293557,0
246,246,Desmoulins,49.881916,2.293557,0
247,247,Donjon,49.945793,2.313104,0
248,248,Saint-Dié,49.903408,2.32918,0
249,249,Saint-Dié,49.903282,2.3295,0
251,251,Doullens,49.904652,2.310371,0
252,252,Doullens,49.904644,2.310649,0
253,253,Dreuil,49.913937,2.228335,0
254,254,Dreuil,49.91399,2.226847,0
256,256,Duchellier,49.913799,2.23487,0
257,257,Duchellier,49.913692,2.235398,0
258,258,Jacques Duclos,49.906441,2.316793,0
259,259,Jacques Duclos,49.906559,2.317558,0
260,260,Durouchez,49.929523,2.280998,0
261,261,Durouchez,49.928761,2.282293,0
897,897,Dury,49.846169,2.269469,0
265,265,M. de P.de Metz,49.880928,2.243273,0
266,266,M. de P.de Metz,49.882221,2.243965,0
801,801,Edouard Branly,49.898182,2.351281,0
884,884,Edouard Branly,49.89822,2.35085,0
267,267,Ernest Cauvin,49.863354,2.239861,0
268,268,Ernest Cauvin,49.863182,2.239833,0
269,269,E. St-Maurice,49.90303,2.291148,0
270,270,E. St-Maurice,49.903236,2.290466,0
272,272,Edmond Marquis,49.887051,2.345274,0
973,973,Egl. St-Acheul,49.883377,2.324959,0
974,974,Egl. St-Acheul,49.883934,2.323597,0
276,276,Edmond Rostand,49.874733,2.328295,0
277,277,Edmond Rostand,49.875191,2.329226,0
1031,1031,Egl. St-Firmin,49.902641,2.277637,0
1032,1032,Egl. St-Firmin,49.902721,2.277498,0
280,280,E.Petit St-Jean,49.887699,2.263355,0
281,281,E.Petit St-Jean,49.887691,2.263494,0
282,282,Egl. St-Pierre,49.903549,2.30666,0
283,283,Egl. St-Pierre,49.90345,2.306466,0
284,284,Egl. Renancourt,49.89444,2.259634,0
285,285,Egl. Renancourt,49.89426,2.258953,0
286,286,Egl. Saint-Leu,49.898483,2.300701,0
2081,2081,Egl. St-Martin,49.88488,2.300044,0
287,287,Elbeuf,49.885887,2.265914,0
288,288,Elbeuf,49.885925,2.266067,0
1033,1033,Eloi Morel,49.902653,2.315029,0
1034,1034,Eloi Morel,49.902893,2.315585,0
907,907,Albatros,49.864906,2.394137,0
908,908,Albatros,49.865192,2.392957,0
1035,1035,Etouvie Quai A,49.913841,2.245923,0
292,292,Etouvie Quai B,49.914021,2.245867,0
293,293,Etoile du Sud,49.862854,2.383162,0
294,294,Etoile du Sud,49.863007,2.383009,0
297,297,Saint-Exupéry,49.877323,2.305634,0
298,298,Saint-Exupery,49.877674,2.305578,0
300,300,La Falaise,49.907059,2.285236,0
301,301,La Falaise,49.906647,2.285584,0
306,306,Fénelon,49.91383,2.32281,0
307,307,Fénelon,49.914146,2.322059,0
1037,1037,Faubourg de Hem,49.904343,2.274451,0
1038,1038,Faubourg de Hem,49.904514,2.274354,0
310,310,Flori. Jourdain,49.901291,2.329041,0
311,311,Flori. Jourdain,49.901207,2.328847,0
312,312,Fernand Léger,49.919041,2.298934,0
313,313,Fernand Léger,49.919079,2.299003,0
314,314,F. Mistral,49.869381,2.323448,0
315,315,F. Mistral,49.869522,2.322628,0
1039,1039,La Fontaine,49.911926,2.254241,0
1040,1040,La Fontaine,49.911953,2.254407,0
318,318,Forceville,49.884499,2.283466,0
319,319,Forceville,49.884838,2.284202,0
320,320,Fosse au Lait,49.885757,2.287787,0
321,321,Fosse au Lait,49.8857,2.287689,0
322,322,De Fouilloy,49.883877,2.30413,0
323,323,De Fouilloy,49.884109,2.304074,0
1041,1041,La Fourche,49.868992,2.36115,0
1042,1042,La Fourche,49.869377,2.36033,0
326,326,Francfort,49.895168,2.261273,0
327,327,Francfort,49.895504,2.261703,0
123,123,Promenade,49.922268,2.305968,0
124,124,Promenade,49.922169,2.307039,0
1122,1122,Friant,49.889946,2.277985,0
328,328,Saint-Fuscien,49.836578,2.313573,0
329,329,Saint-Fuscien,49.837143,2.314419,0
335,335,Gare du Nord E,49.891743,2.306987,0
336,336,Gare du Nord F,49.891994,2.307279,0
1045,1045,Gare du Nord A,49.890537,2.306668,0
1046,1046,Gare du Nord B,49.890377,2.307141,0
128,128,Gare du Nord C,49.891167,2.306835,0
1130,1130,Gare du Nord C,49.891068,2.306737,0
1047,1047,Gare du Nord D,49.890217,2.305862,0
337,337,Gare Routière,49.891636,2.309975,0
338,338,Gare Routière,49.891689,2.310128,0
1048,1048,G. Beauvais,49.873814,2.289618,0
1049,1049,G. Beauvais,49.873886,2.289215,0
343,343,Gendarmerie,49.888218,2.270594,0
344,344,Gendarmerie,49.888523,2.271636,0
345,345,Gérard Philipe,49.870373,2.361525,0
346,346,Gérard Philipe,49.870331,2.361803,0
349,349,Général Leclerc,49.846874,2.396186,0
350,350,Général Leclerc,49.846821,2.396047,0
351,351,Glisy,49.875183,2.397858,0
352,352,Glisy,49.87521,2.397886,0
354,354,La Tourelle,49.895741,2.33973,0
355,355,La Tourelle,49.89584,2.339577,0
799,799,Goodyear,49.935143,2.283746,0
800,800,Goodyear,49.935097,2.28351,0
358,358,Görlitz Quai C,49.871346,2.318947,0
802,802,Görlitz Quai D,49.871391,2.319072,0
359,359,Görlitz Quai B,49.871948,2.31953,0
360,360,Görlitz Quai A,49.871796,2.319627,0
361,361,Rue de Grâce,49.911541,2.251405,0
362,362,Rue de Grâce,49.911575,2.251919,0
1050,1050,Grèce,49.868397,2.282497,0
1051,1051,Grèce,49.868382,2.282608,0
366,366,La Grenouillère,49.859539,2.233007,0
367,367,Simone Veil C,49.893646,2.284638,0
368,368,Simone Veil D,49.893726,2.284527,0
134,134,Simone Veil A,49.893082,2.285598,0
144,144,Simone Veil B,49.892937,2.285848,0
145,145,Simone Veil F,49.894474,2.287194,0
146,146,Simone Veil E,49.894005,2.286695,0
369,369,Résidence Grant,49.917408,2.274004,0
370,370,Résidence Grant,49.917595,2.27367,0
372,372,Le Hameau,49.834995,2.303204,0
373,373,Le Hameau,49.834698,2.302773,0
376,376,Henri Grémont,49.873493,2.247274,0
377,377,Henri Grémont,49.872974,2.24633,0
378,378,H. des Impôts,49.878735,2.311983,0
379,379,H. des Impôts,49.878895,2.312011,0
913,913,Hippodrome,49.896999,2.27175,0
914,914,Hippodrome,49.897133,2.271389,0
380,380,Hôpital Nord,49.907288,2.290059,0
381,381,Hôpital Nord,49.907825,2.290726,0
382,382,Saint-Honoré,49.887356,2.287966,0
383,383,Saint-Honoré,49.887363,2.288035,0
955,955,Siberchicot,49.878056,2.256755,0
905,905,CHU Quai B,49.874184,2.254816,0
954,954,Siberchicot,49.878582,2.256879,0
1052,1052,CHU Quai A,49.874821,2.255107,0
1013,1013,CHU A. Picardie Quai B,49.874184,2.254789,0
906,906,CHU Quai C,49.874157,2.254344,0
147,147,Laënnec Quai C,49.87141,2.25614,0
1131,1131,Laënnec Quai C,49.87141,2.256155,0
151,151,Laënnec Quai A,49.871941,2.256598,0
157,157,Laënnec Quai B,49.872013,2.256654,0
1053,1053,Hôtel de Ville,49.892933,2.295507,0
1054,1054,Dusevel,49.894318,2.298661,0
389,389,I. Deflesselle,49.947552,2.31085,0
390,390,Ilôt St-Maurice,49.909061,2.284483,0
391,391,Ilôt St-Maurice,49.909473,2.284385,0
1055,1055,I.M.E.,49.865585,2.277625,0
1056,1056,I.M.E.,49.865719,2.277944,0
330,330,IUT,49.869987,2.266048,0
156,156,IUT,49.870014,2.265867,0
1057,1057,Jacobins,49.892109,2.298426,0
395,395,Janvier,49.880852,2.304771,0
396,396,Janvier,49.88208,2.304534,0
1058,1058,Jean Jaurès,49.898369,2.286357,0
1059,1059,Jean Jaurès,49.898533,2.286204,0
1223,1223,Jean Catelas,49.857777,2.237885,0
399,399,Jean Moulin,49.876743,2.269206,0
400,400,Jean Moulin,49.876877,2.269525,0
401,401,Joffre,49.887798,2.302849,0
402,402,Joffre,49.887978,2.303502,0
403,403,Joinville,49.877766,2.286905,0
404,404,Joinville,49.877785,2.287669,0
409,409,Kintrabell,49.899891,2.22457,0
814,814,Saint-Ladre,49.920502,2.292286,0
813,813,Saint-Ladre,49.920639,2.292355,0
1060,1060,Languedoc,49.916569,2.255623,0
1061,1061,Languedoc,49.916607,2.255776,0
413,413,La Place,49.969166,2.299717,0
414,414,La Place,49.970081,2.298464,0
415,415,Latapie,49.864048,2.344382,0
416,416,Latapie,49.864407,2.345313,0
417,417,Laurendeau,49.886147,2.295943,0
418,418,Laurendeau,49.885948,2.296068,0
419,419,Louis Blanc,49.901749,2.272717,0
420,420,Louis Blanc,49.900661,2.273455,0
1062,1062,Nautilus,49.910667,2.311828,0
1063,1063,Nautilus,49.910633,2.31212,0
425,425,Lycée La Hotoie,49.897888,2.273292,0
426,426,Lycée La Hotoie,49.897133,2.273168,0
1064,1064,Libération A,49.886902,2.279003,0
1065,1065,Libération B,49.887306,2.279489,0
165,165,Libération C,49.886265,2.279129,0
166,166,Libération D,49.886372,2.277461,0
167,167,Libération E,49.887054,2.278419,0
429,429,Louise Michel,49.892914,2.344164,0
430,430,Louise Michel,49.892643,2.342927,0
1128,1128,Hélène Lockert,49.885269,2.267457,0
1129,1129,Hélène Lockert,49.885422,2.268305,0
431,431,Longueau SNCF,49.863697,2.351952,0
1209,1209,Longueville,49.888569,2.294468,0
45,45,Lucien Barbier,49.89872,2.346805,0
616,616,Lucien Barbier,49.898705,2.347653,0
819,819,Lucien Fournier,49.894356,2.280982,0
820,820,Lucien Fournier,49.89455,2.281496,0
1066,1066,L. de Luzarches,49.884949,2.321137,0
1067,1067,L. de Luzarches,49.885288,2.320345,0
943,943,M. Culture D,49.894505,2.29324,0
2056,2056,M. Culture A,49.894573,2.292239,0
2057,2057,M. Culture B,49.894405,2.292476,0
1068,1068,M. Culture C,49.893578,2.292852,0
440,440,Gutenberg,49.915104,2.279249,0
441,441,Gutenberg,49.915409,2.27872,0
442,442,Michel Ange,49.921989,2.300614,0
443,443,Michel Ange,49.921917,2.300642,0
1069,1069,Espagne,49.871452,2.284925,0
1070,1070,Espagne,49.871471,2.284911,0
446,446,Marivaux,49.91164,2.324577,0
447,447,Marivaux,49.912388,2.324312,0
448,448,Maison d'Arrêt,49.908138,2.322881,0
449,449,Maison d'Arrêt,49.908344,2.32391,0
450,450,Les Marronniers,49.91016,2.33043,0
451,451,Les Marronniers,49.909927,2.329318,0
168,168,Matifas,49.898911,2.332114,0
169,169,Matifas,49.898766,2.332155,0
452,452,Boves M.Barbier,49.848991,2.375998,0
453,453,Boves M.Barbier,49.849003,2.376067,0
454,454,Mairie de Boves,49.845932,2.391672,0
455,455,Mairie de Boves,49.845844,2.391269,0
456,456,Mairie de Camon,49.88765,2.344621,0
457,457,Mégacité,49.896706,2.263758,0
458,458,Mégacité,49.897057,2.26398,0
975,975,Mercey,49.881241,2.330323,0
976,976,Mercey,49.881824,2.32885,0
463,463,Martin du Gard,49.915539,2.294779,0
464,464,Martin du Gard,49.915478,2.295405,0
824,824,MGF Logistique,49.939793,2.281418,0
825,825,MGF Logistique,49.93903,2.281976,0
1071,1071,M. de Longueau,49.870224,2.358122,0
1072,1072,M. de Longueau,49.87051,2.357538,0
469,469,Mons,49.88266,2.319054,0
470,470,Mons,49.882145,2.318067,0
471,471,Moulin,49.937767,2.361488,0
472,472,Moulin,49.937542,2.361571,0
2089,2089,Moutiers,49.866493,2.247995,0
2090,2090,Moutiers,49.866413,2.24787,0
475,475,Marius Petit,49.886959,2.33941,0
476,476,Marius Petit,49.886852,2.339744,0
477,477,M. Poulainville,49.946312,2.313647,0
478,478,M. de Rivery,49.9025,2.322188,0
479,479,M. de Rivery,49.902512,2.32198,0
480,480,M. S. Amiénois,49.818264,2.318591,0
481,481,M. S. Amiénois,49.818459,2.319368,0
482,482,M.de Saleux,49.860451,2.239686,0
483,483,M.de Saleux,49.860786,2.239741,0
484,484,M.de Saloüel,49.871193,2.24361,0
485,485,M.de Saloüel,49.871033,2.243333,0
486,486,M. Saveuse,49.898411,2.216776,0
487,487,C. G. Mareschal,49.869766,2.327921,0
488,488,C. G. Mareschal,49.869595,2.326254,0
489,489,Montmignon,49.859333,2.346145,0
490,490,Montmignon,49.859951,2.344992,0
927,927,Musée,49.890385,2.295912,0
491,491,M. V. Selle,49.843369,2.230888,0
492,492,M. V. Selle,49.843063,2.230722,0
493,493,Numa Augaez,49.858677,2.241717,0
494,494,Numa Augaez,49.858261,2.241343,0
495,495,La Neuville,49.886368,2.332268,0
496,496,La Neuville,49.886208,2.332031,0
497,497,Omer Détourné,49.919235,2.364232,0
498,498,Ormaie,49.874767,2.316889,0
499,499,Ormaie,49.874989,2.316361,0
1073,1073,Otages,49.888435,2.302459,0
1074,1074,Otages,49.888741,2.30207,0
837,837,Ozenfant,49.933422,2.268518,0
838,838,Ozenfant,49.933132,2.268894,0
502,502,Paul Cornet,49.89967,2.219803,0
503,503,Pagès,49.886177,2.286647,0
504,504,Pagès,49.886295,2.286841,0
1075,1075,La Paix,49.91161,2.29741,0
1076,1076,La Paix,49.911678,2.297299,0
1077,1077,Place du Don,49.895584,2.305081,0
1078,1078,Place du Don,49.895737,2.304678,0
508,508,Pasteur,49.86673,2.24066,0
509,509,Pasteur,49.866596,2.240618,0
1079,1079,Pont de l'Avre,49.876331,2.345023,0
1080,1080,Pont de l'Avre,49.876526,2.344564,0
512,512,Paul Baroux,49.88065,2.416983,0
513,513,Paul Baroux,49.880703,2.416956,0
1081,1081,Hortillonnages,49.89756,2.311279,0
1082,1082,Hortillonnages,49.896446,2.310751,0
516,516,Parc de Berny,49.880638,2.284374,0
517,517,Parc de Berny,49.881203,2.284609,0
518,518,Petit Blangy,49.868793,2.420841,0
2018,2018,Place de Cagny,49.862465,2.340784,0
520,520,Place de Cagny,49.861767,2.341437,0
519,519,Place de Cagny,49.862118,2.341729,0
521,521,Place de Cagny,49.86227,2.341715,0
522,522,Petit Camon,49.919395,2.36775,0
523,523,Paul Claudel,49.87521,2.27753,0
524,524,Paul Claudel,49.875076,2.276877,0
527,527,Parc St-Pierre,49.899445,2.311639,0
1083,1083,Parc St-Pierre,49.89941,2.312598,0
1084,1084,Parc St-Pierre,49.898834,2.312626,0
529,529,Paul Eluard,49.875465,2.282767,0
530,530,Paul Eluard,49.875366,2.282726,0
900,900,Abladène,49.881374,2.320166,0
901,901,Abladène,49.881607,2.319763,0
531,531,Petit Fort,49.907833,2.326538,0
532,532,Petit Fort,49.908222,2.326746,0
535,535,Pôle Hôtelier,49.864689,2.372204,0
536,536,Pôle Hôtelier,49.864948,2.37176,0
537,537,Picasso,49.916752,2.298213,0
538,538,Picasso,49.916889,2.298838,0
539,539,P. Corneille,49.923401,2.264874,0
540,540,P. Corneille,49.923363,2.265027,0
1085,1085,Pinceau,49.887119,2.315884,0
1086,1086,Pinceau,49.886868,2.316231,0
543,543,Pinsonnat,49.889423,2.273789,0
544,544,Pinsonnat,49.889366,2.273775,0
545,545,Petit St-Jean,49.882622,2.256275,0
546,546,Petit St-Jean,49.882122,2.255609,0
1087,1087,P. de Justice,49.893223,2.301385,0
528,528,Pôle J. Verne,49.862137,2.382883,0
550,550,Krüger,49.902344,2.295861,0
553,553,Paul Langevin,49.894627,2.340967,0
554,554,Pl. Libertés,49.892876,2.346512,0
555,555,Pl. Libertés,49.893631,2.345595,0
170,170,Pôle Licorne,49.89809,2.267162,0
556,556,Le Petit Many,49.837845,2.310337,0
557,557,Le Petit Many,49.837807,2.310421,0
1088,1088,Place du Marché,49.89576,2.293628,0
1089,1089,Pole E. Nord B,49.911827,2.30318,0
1090,1090,Pole E. Nord A,49.911888,2.303249,0
182,182,Pole E. Nord C,49.912193,2.302443,0
185,185,Pole E. Nord D,49.912273,2.302679,0
1091,1091,Poidevin,49.871632,2.354316,0
1092,1092,Poidevin,49.871616,2.354691,0
1093,1093,P. Cliniques,49.872074,2.296232,0
1094,1094,P. Cliniques,49.872211,2.295538,0
568,568,La Pommeraie,49.820599,2.318882,0
569,569,La Pommeraie,49.82074,2.318882,0
571,571,Pompiers,49.880245,2.33181,0
572,572,Pompiers,49.880054,2.331782,0
573,573,Procter Gamble,49.934822,2.270658,0
574,574,Procter Gamble,49.93494,2.270561,0
845,845,Provinciales,49.875763,2.321849,0
846,846,Provinciales,49.875729,2.321751,0
575,575,La Providence,49.879261,2.299922,0
576,576,La Providence,49.879017,2.301382,0
577,577,Pont Saint-Jean,49.876911,2.2517,0
578,578,Pont Saint-Jean,49.876328,2.250964,0
579,579,Pl. la Victoire,49.86692,2.355092,0
580,580,Pl. la Victoire,49.867054,2.355495,0
212,212,Vogel Quai C,49.897682,2.29592,0
1097,1097,Vogel Quai B,49.898472,2.296072,0
218,218,Vogel Quai E,49.897549,2.294989,0
225,225,Vogel Quai D,49.897564,2.295253,0
847,847,Quentin la Tour,49.923397,2.299445,0
848,848,Quentin la Tour,49.923279,2.298931,0
1098,1098,Quatre Chênes,49.88958,2.281585,0
1099,1099,Quatre Chênes,49.889713,2.281821,0
244,244,Quatre Lemaire,49.883057,2.274894,0
1100,1100,Quatre Lemaire,49.883156,2.275006,0
585,585,Queneuder,49.930805,2.278535,0
586,586,Queneuder,49.930599,2.278744,0
587,587,Rainneville,49.914852,2.312215,0
588,588,Rainneville,49.914547,2.312785,0
589,589,Rue d'Aix,49.871113,2.316766,0
590,590,Rue d'Aix,49.871075,2.316682,0
591,591,R. d'Allonville,49.914333,2.319098,0
592,592,R. d'Allonville,49.914154,2.318764,0
593,593,Route d'Amiens,49.854816,2.273221,0
594,594,Route d'Amiens,49.8554,2.273609,0
595,595,Le Ramponneau,49.957676,2.312612,0
596,596,Le Ramponneau,49.957829,2.312152,0
597,597,Rue du 31 Août,49.878914,2.323807,0
598,598,Rue du 31 Août,49.87888,2.323876,0
601,601,René Cassin,49.912182,2.337785,0
602,602,René Cassin,49.912109,2.337215,0
605,605,Roland Douay,49.905499,2.313429,0
606,606,Roland Douay,49.905407,2.313304,0
607,607,Rembault,49.89587,2.280369,0
608,608,Rembault,49.895809,2.281022,0
1101,1101,Emile Zola,49.89045,2.30218,0
1102,1102,René Goblet,49.891273,2.302235,0
611,611,R. Gourdain,49.877354,2.331546,0
612,612,R. Gourdain,49.876789,2.33106,0
613,613,Cayeux,49.901459,2.332794,0
614,614,Cayeux,49.901073,2.332183,0
615,615,La Haute Borne,49.914623,2.334907,0
617,617,R. Lefebvre,49.885639,2.346844,0
255,255,République,49.894474,2.337006,0
620,620,Ronsard,49.912537,2.316791,0
621,621,Ronsard,49.912689,2.316429,0
624,624,Robert Petit,49.899925,2.32736,0
1103,1103,Romain Rolland,49.915497,2.302649,0
1104,1104,Romain Rolland,49.915588,2.302941,0
1105,1105,La Rose Rouge,49.872757,2.351704,0
1106,1106,La Rose Rouge,49.872952,2.351329,0
262,262,Rotonde,49.877277,2.262231,0
263,263,Rotonde,49.877377,2.262522,0
634,634,Royaume-Uni,49.874722,2.287728,0
635,635,Royaume-Uni,49.875118,2.287575,0
636,636,Pont-de-Metz,49.876205,2.248061,0
637,637,Pont-de-Metz,49.876556,2.246004,0
264,264,Route de Rouen,49.885811,2.272626,0
271,271,Route de Rouen,49.885838,2.27214,0
638,638,Résid. du Stade,49.878521,2.272552,0
639,639,Résid. du Stade,49.87854,2.272677,0
640,640,Royal Tank,49.883339,2.281314,0
641,641,Royal Tank,49.88348,2.281703,0
1107,1107,Résid. du Thil,49.871098,2.259753,0
1108,1108,Résid. du Thil,49.871025,2.259864,0
644,644,Edouard Ruelle,49.874466,2.423115,0
645,645,Edouard Ruelle,49.875149,2.422949,0
646,646,Resid. Univ,49.874615,2.269375,0
647,647,Resid. Univ,49.874588,2.270278,0
648,648,Résid.Véronique,49.82766,2.303486,0
649,649,Sagebien,49.878223,2.290601,0
650,650,Sagebien,49.877937,2.289753,0
652,652,S. en-Amiénois,49.815964,2.315608,0
655,655,Saleux,49.862335,2.226626,0
275,275,Espace Santé,49.913925,2.302441,0
1109,1109,Espace Santé,49.914043,2.302692,0
656,656,Saveuse,49.900677,2.21235,0
1110,1110,Sobo,49.878925,2.336006,0
1111,1111,Sobo,49.879444,2.334686,0
857,857,Square Laclos,49.876743,2.327281,0
664,664,Square Laclos,49.877216,2.326489,0
902,902,Square Laclos,49.876606,2.32585,0
1112,1112,Martinique,49.915749,2.247546,0
1113,1113,Martinique,49.915855,2.24813,0
668,668,Stade,49.874428,2.398691,0
669,669,Stade,49.873631,2.399315,0
235,235,Stade Nord,49.915104,2.309129,0
236,236,Stade Nord,49.914906,2.309129,0
1114,1114,Stendhal,49.90786,2.317571,0
1115,1115,Stendhal,49.908005,2.317557,0
2049,2049,Saint-Jacques,49.896065,2.289764,0
2050,2050,Saint-Jacques,49.896225,2.289541,0
674,674,Saint-Just,49.890678,2.276497,0
675,675,Saint-Just,49.890347,2.275858,0
677,677,Saint-Quentin,49.879063,2.303827,0
679,679,Saint-Quentin,49.879181,2.306689,0
680,680,Strasbourg,49.889595,2.277499,0
681,681,Strasbourg,49.889137,2.277611,0
682,682,Saint-Sauveur,49.924511,2.260311,0
683,683,Saint-Sauveur,49.924332,2.261563,0
1118,1118,Sully,49.908054,2.264159,0
1119,1119,Sully,49.907742,2.265133,0
1214,1214,Taisnil,49.860172,2.228256,0
686,686,Terral,49.909729,2.292935,0
687,687,Terral,49.90984,2.293268,0
688,688,Terrière,49.886581,2.328974,0
689,689,Terrière,49.886482,2.329155,0
690,690,T-Delambre,49.902069,2.325872,0
691,691,T-Delambre,49.902122,2.325191,0
1207,1207,Le Tintoret,49.923378,2.29658,0
1208,1208,Le Tintoret,49.92345,2.296191,0
860,860,Le Titien,49.923019,2.294884,0
861,861,Le Titien,49.922768,2.293911,0
692,692,Tivoli,49.896076,2.278631,0
693,693,Tivoli,49.896156,2.278019,0
694,694,Elsa Triolet,49.872128,2.332255,0
695,695,Elsa Triolet,49.871788,2.332352,0
696,696,UCAP,49.850395,2.390608,0
697,697,UCAP,49.850109,2.390954,0
1120,1120,UPJV Saint-Leu,49.896751,2.300202,0
302,302,UPJV Saint-Leu,49.896732,2.300744,0
866,866,Valéo,49.933823,2.280173,0
867,867,Valéo,49.933743,2.279923,0
701,701,La Vallée,49.888828,2.347151,0
702,702,La Vallée,49.888775,2.347026,0
703,703,Vauban,49.902695,2.303102,0
704,704,Vauban,49.902714,2.303645,0
709,709,Au Gré du Vent,49.872353,2.322447,0
710,710,Au Gré du Vent,49.872459,2.322725,0
711,711,Vert Bout,49.878605,2.398654,0
712,712,Vergers,49.874859,2.273626,0
713,713,Vergers,49.87484,2.274293,0
714,714,Vers-sur-Selle,49.840801,2.234267,0
715,715,Victor Hugo,49.913895,2.230907,0
716,716,Victor Hugo,49.91391,2.231255,0
717,717,Vignacourt,49.903805,2.289076,0
718,718,Vignacourt,49.903957,2.288978,0
871,871,Pinel,49.87048,2.279855,0
881,881,Pinel,49.870419,2.280078,0
719,719,Victor Magniez,49.881596,2.278453,0
720,720,Victor Magniez,49.882053,2.279161,0
721,721,Voltaire,49.907162,2.319226,0
722,722,Voltaire,49.907249,2.319796,0
723,723,Voyelle,49.887615,2.33349,0
724,724,Voyelle,49.887608,2.334005,0
725,725,Wabco,49.933521,2.273108,0
918,918,Wabco,49.933136,2.273984,0
919,919,Wabco,49.933586,2.273024,0
1127,1127,Waide,49.898239,2.29781,0
877,877,WALF,49.943893,2.2745,0
878,878,WALF,49.944118,2.275028,0
727,727,Wasse,49.865189,2.337381,0
728,728,Wasse,49.864758,2.338034,0
729,729,Watteau,49.913773,2.294781,0
730,730,Watteau,49.914146,2.294739,0
1210,1210,Maitre ZAcarius,49.867462,2.399321,0
1211,1211,Maitre ZAcarius,49.867325,2.399307,0
882,882,Esp. Ind. Nord,49.927254,2.285062,0
731,731,Esp. Ind. Nord,49.926991,2.285688,0